[
  {
    "id": 1,
    "name": "Alameda County Food Bank",
    "category": "food",
    "address": "7900 Edgewater Drive, Oakland, CA 94621",
    "zip": "94621",
    "hours": "Mon-Fri: 9am-5pm",
    "phone": "(510) 635-3663",
    "website": "https://www.accfb.org",
    "eligibilityNotes": "Open to all residents of Alameda County. No income verification required for emergency food assistance.",
    "eligibilityTags": ["low_income", "senior", "parent", "veteran"],
    "languagesSupported": ["English", "Spanish"]
  },
  {
    "id": 2,
    "name": "Alameda County Housing Authority",
    "category": "housing",
    "address": "22941 Atherton Street, Hayward, CA 94541",
    "zip": "94541",
    "hours": "Mon-Fri: 8am-5pm",
    "phone": "(510) 538-8876",
    "website": "https://www.haca.net",
    "eligibilityNotes": "Must meet income guidelines. Priority for families with children, seniors, and people with disabilities.",
    "eligibilityTags": ["low_income", "senior", "parent", "disabled"],
    "languagesSupported": ["English", "Spanish"]
  },
  {
    "id": 3,
    "name": "Crisis Support Services",
    "category": "mental_health",
    "address": "24/7 Crisis Line: (800) 309-2131",
    "zip": "94601",
    "hours": "24/7 Crisis Line",
    "phone": "(800) 309-2131",
    "website": "https://www.crisissupport.org",
    "eligibilityNotes": "Free crisis counseling available 24/7. No insurance required.",
    "eligibilityTags": ["low_income", "senior", "parent", "veteran", "disabled"],
    "languagesSupported": ["English", "Spanish"]
  },
  {
    "id": 4,
    "name": "East Bay Community Law Center",
    "category": "legal",
    "address": "2921 Adeline Street, Berkeley, CA 94703",
    "zip": "94703",
    "hours": "Mon-Fri: 9am-5pm",
    "phone": "(510) 548-4040",
    "website": "https://ebclc.org",
    "eligibilityNotes": "Free legal services for low-income residents. Focus on housing, employment, and public benefits.",
    "eligibilityTags": ["low_income", "senior", "parent", "veteran", "disabled"],
    "languagesSupported": ["English", "Spanish"]
  },
  {
    "id": 5,
    "name": "Workforce Development Board",
    "category": "jobs",
    "address": "24100 Amador Street, Hayward, CA 94544",
    "zip": "94544",
    "hours": "Mon-Fri: 8am-5pm",
    "phone": "(510) 259-3800",
    "website": "https://www.acwdb.org",
    "eligibilityNotes": "Job training and placement services. Must be 18+ and legally authorized to work.",
    "eligibilityTags": ["low_income", "veteran", "disabled"],
    "languagesSupported": ["English", "Spanish"]
  },
  {
    "id": 6,
    "name": "St. Vincent de Paul Community Kitchen",
    "category": "food",
    "address": "2272 San Pablo Avenue, Oakland, CA 94612",
    "zip": "94612",
    "hours": "Daily: 11:30am-1pm",
    "phone": "(510) 893-4713",
    "website": "https://svdp-alameda.org",
    "eligibilityNotes": "Free hot meals daily. No questions asked, no registration required.",
    "eligibilityTags": ["low_income", "senior", "parent", "veteran", "disabled"],
    "languagesSupported": ["English", "Spanish"]
  },
  {
    "id": 7,
    "name": "Alameda County Behavioral Health",
    "category": "mental_health",
    "address": "2000 Embarcadero, Suite 400, Oakland, CA 94606",
    "zip": "94606",
    "hours": "Mon-Fri: 8am-5pm",
    "phone": "(510) 567-8100",
    "website": "https://www.acbhcs.org",
    "eligibilityNotes": "Mental health services for Medi-Cal recipients and low-income residents.",
    "eligibilityTags": ["low_income", "senior", "parent", "veteran", "disabled"],
    "languagesSupported": ["English", "Spanish"]
  },
  {
    "id": 8,
    "name": "Bay Area Legal Aid",
    "category": "legal",
    "address": "1735 Telegraph Avenue, Oakland, CA 94612",
    "zip": "94612",
    "hours": "Mon-Fri: 9am-5pm",
    "phone": "(510) 250-5260",
    "website": "https://baylegal.org",
    "eligibilityNotes": "Free legal help for low-income individuals. Services include family law, housing, and public benefits.",
    "eligibilityTags": ["low_income", "senior", "parent", "veteran", "disabled"],
    "languagesSupported": ["English", "Spanish"]
  },
  {
    "id": 9,
    "name": "Goodwill Industries Job Training",
    "category": "jobs",
    "address": "7200 Bancroft Avenue, Oakland, CA 94605",
    "zip": "94605",
    "hours": "Mon-Fri: 9am-5pm",
    "phone": "(510) 577-2200",
    "website": "https://www.goodwill.org",
    "eligibilityNotes": "Free job training programs. Open to all, with special programs for veterans and people with disabilities.",
    "eligibilityTags": ["low_income", "veteran", "disabled"],
    "languagesSupported": ["English", "Spanish"]
  },
  {
    "id": 10,
    "name": "Alameda County Social Services",
    "category": "housing",
    "address": "2000 Embarcadero, Suite 100, Oakland, CA 94606",
    "zip": "94606",
    "hours": "Mon-Fri: 8am-5pm",
    "phone": "(510) 272-1000",
    "website": "https://www.alamedacountysocialservices.org",
    "eligibilityNotes": "Emergency housing assistance and rental assistance programs. Income-based eligibility.",
    "eligibilityTags": ["low_income", "senior", "parent", "disabled"],
    "languagesSupported": ["English", "Spanish"]
  }
]

